<?xml version="1.0" encoding="utf-8" standalone="yes"?>
<gpx version="1.1" creator="GPS Visualizer https://www.gpsvisualizer.com/" xmlns="http://www.topografix.com/GPX/1/1" xmlns:xsi="http://www.w3.org/2001/XMLSchema-instance" xsi:schemaLocation="http://www.topografix.com/GPX/1/1 http://www.topografix.com/GPX/1/1/gpx.xsd">
<wpt lat="51.3834356" lon="-2.2977005">
  <name>Yew Tree Slab</name>
  <desc>aka: &lt;br>aka2: &lt;br>Latitude: 51.3834356&lt;br>Longitude: -2.2977005&lt;br>what3words: wrong.sums.bubble</desc>
  <sym>icon-1.png</sym>
</wpt>
<wpt lat="51.383072" lon="-2.297653">
  <name>Rob's Roof</name>
  <desc>aka: &lt;br>aka2: &lt;br>Latitude: 51.383072&lt;br>Longitude: -2.297653&lt;br>what3words: spent.grants.fees</desc>
  <sym>icon-1.png</sym>
</wpt>
<wpt lat="51.383746" lon="-2.297739">
  <name>Yew Tree End</name>
  <desc>aka: &lt;br>aka2: &lt;br>Latitude: 51.383746&lt;br>Longitude: -2.297739&lt;br>what3words: quit.cheese.tilt</desc>
  <sym>icon-1.png</sym>
</wpt>
<wpt lat="51.383207" lon="-2.297091">
  <name>Mossy Slab</name>
  <desc>aka: &lt;br>aka2: &lt;br>Latitude: 51.383207&lt;br>Longitude: -2.297091&lt;br>what3words: fats.sulk.pinks</desc>
  <sym>icon-1.png</sym>
</wpt>
<wpt lat="51.384123" lon="-2.298128">
  <name>Bad Landing Project</name>
  <desc>aka: Boulder 2&lt;br>aka2: &lt;br>Latitude: 51.384123&lt;br>Longitude: -2.298128&lt;br>what3words: zest.diner.filer</desc>
  <sym>icon-1.png</sym>
</wpt>
<wpt lat="51.384204" lon="-2.298215">
  <name>The Fridge</name>
  <desc>aka: &lt;br>aka2: &lt;br>Latitude: 51.384204&lt;br>Longitude: -2.298215&lt;br>what3words: bells.milky.trials</desc>
  <sym>icon-1.png</sym>
</wpt>
<wpt lat="51.384204" lon="-2.297739">
  <name>Boulder 3</name>
  <desc>aka: &lt;br>aka2: &lt;br>Latitude: 51.384204&lt;br>Longitude: -2.297739&lt;br>what3words: thin.tunnel.circle</desc>
  <sym>icon-1.png</sym>
</wpt>
<wpt lat="51.384231" lon="-2.29748">
  <name>Stack and Mini Cave</name>
  <desc>aka: &lt;br>aka2: &lt;br>Latitude: 51.384231&lt;br>Longitude: -2.29748&lt;br>what3words: spell.giant.talked</desc>
  <sym>icon-1.png</sym>
</wpt>
<wpt lat="51.3844488" lon="-2.2989503">
  <name>Mike's Boulder</name>
  <desc>aka: Combine Harvester&lt;br>aka2: Boulder 6&lt;br>Latitude: 51.3844488&lt;br>Longitude: -2.2989503&lt;br>what3words: gears.love.ruby</desc>
  <sym>icon-1.png</sym>
</wpt>
<wpt lat="51.3845" lon="-2.298647">
  <name>Ben's Boulder</name>
  <desc>aka: Boulder 5c&lt;br>aka2: &lt;br>Latitude: 51.3845&lt;br>Longitude: -2.298647&lt;br>what3words: shift.calls.almost</desc>
  <sym>icon-1.png</sym>
</wpt>
<wpt lat="51.384635" lon="-2.29869">
  <name>Ben's Boulder Back Area</name>
  <desc>aka: Boulder 5a, 5b&lt;br>aka2: &lt;br>Latitude: 51.384635&lt;br>Longitude: -2.29869&lt;br>what3words: vibe.stuff.exile</desc>
  <sym>icon-1.png</sym>
</wpt>
<wpt lat="51.384581" lon="-2.298215">
  <name>Boulder 4</name>
  <desc>aka: &lt;br>aka2: &lt;br>Latitude: 51.384581&lt;br>Longitude: -2.298215&lt;br>what3words: wash.panel.love</desc>
  <sym>icon-1.png</sym>
</wpt>
<wpt lat="51.38609" lon="-2.29882">
  <name>Ragnarök</name>
  <desc>aka: &lt;br>aka2: &lt;br>Latitude: 51.38609&lt;br>Longitude: -2.29882&lt;br>what3words: chose.elite.legs</desc>
  <sym>icon-1.png</sym>
</wpt>
<wpt lat="51.3883" lon="-2.298604">
  <name>Matterhorn</name>
  <desc>aka: &lt;br>aka2: &lt;br>Latitude: 51.3883&lt;br>Longitude: -2.298604&lt;br>what3words: bets.privately.smug</desc>
  <sym>icon-1.png</sym>
</wpt>
<wpt lat="51.389217" lon="-2.297956">
  <name>Sin City</name>
  <desc>aka: &lt;br>aka2: &lt;br>Latitude: 51.389217&lt;br>Longitude: -2.297956&lt;br>what3words: spaces.hardly.levels</desc>
  <sym>icon-1.png</sym>
</wpt>
<wpt lat="51.382479" lon="-2.296832">
  <name>Roadside Boulder</name>
  <desc>aka: &lt;br>aka2: &lt;br>Latitude: 51.382479&lt;br>Longitude: -2.296832&lt;br>what3words: bend.roofs.bath</desc>
  <sym>icon-1.png</sym>
</wpt>
<wpt lat="51.3807" lon="-2.294238">
  <name>Boulder 7</name>
  <desc>aka: &lt;br>aka2: &lt;br>Latitude: 51.3807&lt;br>Longitude: -2.294238&lt;br>what3words: become.robots.large</desc>
  <sym>icon-1.png</sym>
</wpt>
<wpt lat="51.379865" lon="-2.293504">
  <name>All Elements Area</name>
  <desc>aka: &lt;br>aka2: &lt;br>Latitude: 51.379865&lt;br>Longitude: -2.293504&lt;br>what3words: deeply.haven.rests</desc>
  <sym>icon-1.png</sym>
</wpt>
<wpt lat="51.380619" lon="-2.293547">
  <name>Halloween Buttress</name>
  <desc>aka: The Cliff&lt;br>aka2: The Edge&lt;br>Latitude: 51.380619&lt;br>Longitude: -2.293547&lt;br>what3words: enjoyable.fuel.verse</desc>
  <sym>icon-1.png</sym>
</wpt>
<wpt lat="51.381751" lon="-2.294627">
  <name>RH Cave</name>
  <desc>aka: &lt;br>aka2: &lt;br>Latitude: 51.381751&lt;br>Longitude: -2.294627&lt;br>what3words: king.single.passes</desc>
  <sym>icon-1.png</sym>
</wpt>
<wpt lat="51.381967" lon="-2.294627">
  <name>LH cave</name>
  <desc>aka: &lt;br>aka2: &lt;br>Latitude: 51.381967&lt;br>Longitude: -2.294627&lt;br>what3words: danger.loser.grows</desc>
  <sym>icon-1.png</sym>
</wpt>
</gpx>
